Longitude,Latitude,Place_Name,Country
11.576124,48.137154,Munich Center,Germany
13.404954,52.520008,Berlin Center,Germany
9.993682,53.551086,Hamburg Center,Germany
8.682127,50.110924,Frankfurt Center,Germany
6.960279,50.937531,Cologne Center,Germany
